[
  {
    "id":1,
    "name":"Bare Bones Grill & Brewery",
    "street":"9150 Baltimore National Pike",
    "city":"Ellicott City",
    "state":"Maryland",
    "zip":21042,
    "phone":"410-461-0770",
    "url":"http://www.barebonesgrill.com",
    "lat":39.278142,
    "long":-76.828144
  },
  {
    "id":2,
    "name":"Dempsey's Brew Pub & Restaurant",
    "street":"555 Russell St.",
    "city":"Baltimore",
    "state":"Maryland",
    "zip":21230,
    "phone":"410-843-7901",
    "url":"http://www.dempseysbaltimore.com",
    "lat":39.284312,
    "long":-76.621947
  },
  {
    "id":3,
    "name":"Diamondback Beer",
    "street":"605 S Talbot St.",
    "city":"St. Michaels",
    "state":"Maryland",
    "zip":21663,
    "phone":"443-904-1791",
    "url":"http://www.diamondbackbeer.com",
    "lat":38.781061,
    "long":-76.221889
  },
  {
    "id":4,
    "name":"DuClaw Brewing Company",
    "street":"8901 Yellow Brick Rd.",
    "city":"Baltimore",
    "state":"Maryland",
    "zip":21236,
    "phone":"443-559-9900",
    "url":"http://duclaw.com",
    "lat":39.340208,
    "long":-76.479152
  },
  {
    "id":5,
    "name":"Ellicott Mills Brewing Company",
    "street":"8308 Main St.",
    "city":"Ellicott City",
    "state":"Maryland",
    "zip":21043,
    "phone":"410-313-8141",
    "url":"http://www.ellicottmillsbrewing.com",
    "lat":39.268078,
    "long":-76.799517
  },
  {
    "id":6,
    "name":"Full Tilt Brewing",
    "street":"401 E 30th St.",
    "city":"Baltimore",
    "state":"Maryland",
    "zip":21218,
    "phone":"410-467-7837",
    "url":"http://www.fulltiltbrewing.com",
    "lat":39.324356,
    "long":-76.61042
  },
  {
    "id":7,
    "name":"Heavy Seas Beer",
    "street":"4615 Hollins Ferry Rd.",
    "city":"Baltimore",
    "state":"Maryland",
    "zip":21227,
    "phone":"410-247-7822",
    "url":"http://www.hsbeer.com",
    "lat":39.230827,
    "long":-76.675131
  },
  {
    "id":8,
    "name":"Independent Brewing Co.",
    "street":"418 N Main St.",
    "city":"Bel Air",
    "state":"Maryland",
    "zip":21014,
    "phone":"410-836-8313",
    "url":"https://www.independentbrew.com",
    "lat":39.539846,
    "long":-76.35683
  },
  {
    "id":9,
    "name":"Manor Hill Brewing",
    "street":"4411 Manor Ln.",
    "city":"Ellicott City",
    "state":"Maryland",
    "zip":21042,
    "phone":"410-215-4001",
    "url":"http://manorhillbrewing.com",
    "lat":39.249733,
    "long":-76.888174
  },
  {
    "id":10,
    "name":"Monument City Brewing Company",
    "street":"401 E 30th St.",
    "city":"Baltimore",
    "state":"Maryland",
    "zip":21218,
    "phone":"410-467-7837",
    "url":"http://www.monumentcitybrewing.com",
    "lat":39.324356,
    "long":-76.61042
  },
  {
    "id":11,
    "name":"Oliver Brewing Co.",
    "street":"4216 Shannon Dr.",
    "city":"Baltimore",
    "state":"Maryland",
    "zip":21213,
    "phone":"unknown",
    "url":"http://oliverbrewingco.com",
    "lat":39.314815,
    "long":-76.553197
  },
  {
    "id":12,
    "name":"Pratt Street Ale House",
    "street":"206 W Pratt St.",
    "city":"Baltimore",
    "state":"Maryland",
    "zip":21201,
    "phone":"410-244-8900",
    "url":"http://www.prattstreetalehouse.com",
    "lat":39.286605,
    "long":-76.61815
  },
  {
    "id":13,
    "name":"Public Works Ale",
    "street":"401 E 30th St.",
    "city":"Baltimore",
    "state":"Maryland",
    "zip":21218,
    "phone":"410-467-7837",
    "url":"http://publicworksale.com",
    "lat":39.324356,
    "long":-76.61042
  },
  {
    "id":14,
    "name":"Push American Brewing Company",
    "street":"6695 Dobbin Rd.",
    "city":"Columbia",
    "state":"Maryland",
    "zip":21045,
    "phone":"410-312-4907",
    "url":"http://www.friscotaphouse.com",
    "lat":39.186054,
    "long":-76.825262
  },
  {
    "id":15,
    "name":"Raven Beer",
    "street":"401 E 30th St.",
    "city":"Baltimore",
    "state":"Maryland",
    "zip":21218,
    "phone":"443-847-6223",
    "url":"http://www.ravenbeer.com",
    "lat":39.324356,
    "long":-76.61042
  },
  {
    "id":16,
    "name":"Stillwater Artisanal Ales",
    "street":"1028 S Conkling St.",
    "city":"Baltimore",
    "state":"Maryland",
    "zip":21224,
    "phone":"410-327-0760",
    "url":"http://www.stillwater-artisanal.com",
    "lat":39.280742,
    "long":-76.566968
  },
  {
    "id":17,
    "name":"The Brewer's Art",
    "street":"1106 N Charles St.",
    "city":"Baltimore",
    "state":"Maryland",
    "zip":21201,
    "phone":"410-547-6925",
    "url":"http://www.thebrewersart.com",
    "lat":39.302778,
    "long":-76.61638
  },
  {
    "id":18,
    "name":"Union Craft Brewing Company",
    "street":"1700 Union Ave.",
    "city":"Baltimore",
    "state":"Maryland",
    "zip":21211,
    "phone":"410-467-0290",
    "url":"http://www.unioncraftbrewing.com",
    "lat":39.332275,
    "long":-76.643274
  },
  {
    "id":19,
    "name":"Waverly Brewing Company",
    "street":"1625 Union Ave",
    "city":"Baltimore",
    "state":"Maryland",
    "zip":21211,
    "phone":"443-438-5765",
    "url":"http://waverlybrewingcompany.com",
    "lat":39.331648,
    "long":-76.641297
  },
  {
    "id":20,
    "name":"White Marsh Brewing Company",
    "street":"8149 Honeygo Blvd.",
    "city":"Baltimore",
    "state":"Maryland",
    "zip":21236,
    "phone":"410-931-7827",
    "url":"http://www.redbrickstation.com",
    "lat":39.371559,
    "long":-76.466343
  }
]
